[
  {
    "title": "The Godfather",
    "url": "/climbs/the-godfather/",
    "date": "March 2023",
    "grade": "VIII, 8",
    "location": "Coire Nan Fhamhair, Beinn Bhan",
    "latitude": 57.44696,
    "longitude": -5.664378
  },
  {
    "title": "Hung, Drawn, and Quartered",
    "url": "/climbs/hung-drawn-and-quartered/",
    "date": "March 2023",
    "grade": "VIII, 8",
    "location": "Am Basteir, Skye",
    "latitude": 57.248,
    "longitude": -6.227
  },
  {
    "title": "Rumplestiltskin",
    "url": "/climbs/rumplestiltskin/",
    "date": "March 2023",
    "grade": "VII, 8",
    "location": "Carn Etchachan, Cairngorms",
    "latitude": 57.067,
    "longitude": -3.617
  },
  {
    "title": "Supersleuth",
    "url": "/climbs/supersleuth/",
    "date": "December 2022",
    "grade": "VII, 8",
    "location": "Mainreachan Buttress, Fuar Tholl",
    "latitude": 57.4845204,
    "longitude": -5.3906677
  },
  {
    "title": "Nathrach Dubh",
    "url": "/climbs/nathrach-dubh/",
    "date": "February 2023",
    "grade": "VI, 6",
    "location": "Carn Etchachan, Cairngorms",
    "latitude": 57.068,
    "longitude": -3.615
  },
  {
    "title": "The Gathering",
    "url": "/climbs/the-gathering/",
    "date": "February 2023",
    "grade": "IX, 9",
    "location": "Coire an Lochain, Cairngorms",
    "latitude": 57.077,
    "longitude": -3.647
  },
  {
    "title": "Raven's Edge",
    "url": "/climbs/ravens-edge/",
    "date": "January 2023",
    "grade": "VII, 7",
    "location": "Buachaille Etive Mor",
    "latitude": 56.652,
    "longitude": -5.050
  },
  {
    "title": "Slav Route",
    "url": "/climbs/slav-route/",
    "date": "March 2022",
    "grade": "VI, 5",
    "location": "Orion Face, Ben Nevis",
    "latitude": 56.797,
    "longitude": -5.003
  },
  {
    "title": "Ventricle",
    "url": "/climbs/ventricle/",
    "date": "February 2022",
    "grade": "VII, 8",
    "location": "Coire an Lochain, Cairngorms",
    "latitude": 57.078,
    "longitude": -3.645
  },
  {
    "title": "Neanderthal",
    "url": "/climbs/neanderthal/",
    "date": "February 2022",
    "grade": "VII, 7",
    "location": "Lost Valley Buttress, Glencoe",
    "latitude": 56.658,
    "longitude": -5.055
  },
  {
    "title": "Sioux Wall",
    "url": "/climbs/sioux-wall/",
    "date": "December 2020",
    "grade": "VII, 8",
    "location": "Coire na Ciste, Ben Nevis",
    "latitude": 56.800,
    "longitude": -5.008
  },
  {
    "title": "Un Poco Loco",
    "url": "/climbs/un-poco-loco/",
    "date": "January 2020",
    "grade": "VII, 7",
    "location": "Church Door Buttress, Bidean Nam Bian",
    "latitude": 56.657,
    "longitude": -5.075
  },
  {
    "title": "Auricle and Ventriloquist",
    "url": "/climbs/auricle-and-ventriloquist/",
    "date": "November 2019",
    "grade": "VII, 7",
    "location": "Coire an Lochain, Cairngorms",
    "latitude": 57.076,
    "longitude": -3.649
  }
]
